StateName,lat,lon,y2005,y2006,y2007,y2008,y2009,y2010,y2011,y2012,y2013,y2014,y2015,minDuration,bufferZone,details
Alabama,32.806671,-86.79113,12,11,19,21,22,28,28,25,27,28,29,100,2000,"2,000 ft. of school, child care facility, resident camp facility, victim or victim’s immediate family; exceptions apply. §15- 20A-11. Additional restrictions apply to residence with any minor."
Alaska,61.370716,-152.404419,43,62,45,77,27,26,38,27,29,44,30,15,,-
Arizona,33.729759,-111.431221,16,19,23,23,23,23,22,22,22,22,23,10,,-
Arkansas,34.969704,-92.373123,21,23,27,28,32,35,31,39,44,34,51,15,2000,"2,000 ft. of elementary or secondary school, public park, day care center, youth center. L3 & L4 offenders: 2,000 ft. of victim. L4 offenders: 2,000 ft. of church"
California,36.116203,-119.681564,29,24,24,18,17,23,33,33,21,21,21,100,2000,"2,000 ft. of schools and parks. §3003.5(b). NOTE: this statute was declared unconstitutional as applied to certain parolees by In re Taylor, 60 Cal. 4th 1019 (2015) and is no longer being enforced by the state. However, local governments may enforce this statute or local ordinances."
Colorado,39.059811,-105.311104,18,19,24,20,14,22,29,29,31,32,33,100,,-
Connecticut,41.597782,-72.755371,11,12,13,13,14,14,15,15,15,15,16,10,,-
Delaware,39.318523,-75.507141,35,35,8,39,42,44,44,51,53,50,50,15,500,May not reside or loiter within 500 ft. of school property. §1112.
District of Columbia,38.897438,-77.026817,11,11,58,13,14,15,15,15,15,15,15,10,,-
Florida,27.766279,-81.686783,19,20,24,26,28,28,25,30,31,32,33,100,1000,"May not reside within 1,000 ft. of school, child care facility, park, or playground under certain circumstances. §775.215"
Georgia,33.040619,-83.643074,10,13,15,16,17,19,21,22,23,25,27,100,1000,"May not reside, loiter, or be employed within 1,000 ft. of child care facility, church, school, or area where minors congregate. Certain other employment restrictions apply. §§42-1-15 through 42-1-17."
Hawaii,21.094318,-157.498337,15,17,18,19,21,22,25,24,21,21,21,100,,-
Idaho,44.240459,-114.478828,18,19,19,20,21,22,23,23,24,25,26,10,500,"May not reside or loiter within 500 ft. of school, and may not reside within more than one person also required to register, with certain exceptions. §§18-8331, 18-8332."
Illinois,40.349457,-88.986137,14,14,19,15,18,16,17,22,17,18,18,10,500,"“Child sex offender” may not reside w/in 500 ft. of school, park, playground, or facility where minors gather. §730 I.L.C.S. §150/8."
Indiana,39.849426,-86.258278,12,13,14,15,19,16,14,15,22,17,17,10,,Paroled registrants face certain residence restrictions. §11-13-3-4.
Iowa,42.011539,-93.210526,21,20,21,18,16,23,17,17,19,19,17,10,2000,"Registrants with convictions of involving minors for “sexual abuse” in the 1st or 2nd degree, or in the 3d degree except for a conviction under I.C. §709.4(2)(c)(4), may not reside w/in 2,000 ft. of daycare center."
Kansas,38.5266,-96.726486,13,14,17,21,41,34,21,22,26,30,33,15,,"None, and local residence restrictions are expressly prohibited by K.S.A. §22-4913."
Kentucky,37.66814,-84.670067,12,13,15,16,17,19,20,21,22,23,24,20,1000,"1,000 ft. of schools, day care facilities, and publicly owned playgrounds; must move out of residence within 90 days if a new residence opens. §17.545."
Louisiana,31.169546,-91.867805,14,16,17,18,21,17,18,23,18,19,20,15,,Residence and presence restrictions apply to certain registrants convicted of offenses involving victims under the age of 13. §14:91.02
Maine,44.693947,-69.381927,12,13,21,23,25,25,22,22,23,24,21,10,,"For registrants convicted after June 30, 1992 of an offense against a person younger than 14, Maine prohibits the knowing initiation of contact with a person younger than 14 in a “sex offender restricted zone,” unless the parent consents or the contact is for employment purposes."
Maryland,39.063946,-76.802101,8,8,8,10,11,11,12,13,14,15,12,15,,may not knowing enter school grounds or property containing a child care home or child care institution. §11-705.
Massachusetts,42.230171,-71.530106,28,13,18,23,20,23,17,17,17,17,17,20,,-
Michigan,43.326618,-84.536095,36,38,41,48,44,46,47,40,41,38,42,15,1000,"1,000 feet of “student safety zone,” i.e., a school, with certain exceptions. §§28.734, 28.736. Those convicted when residing in a student safety zone have 90 days to relocate. §28.735(4)."
Minnesota,45.694454,-93.900192,31,27,27,39,28,30,30,32,32,32,32,10,,-
Mississippi,32.741646,-89.678696,11,13,16,17,18,20,23,24,26,28,31,15,1500,"1,500 ft. of school; child care facility; “residential child-caring agency;” a children’s group home; or playground, ballpark, or other recreational facility used by children. §45-33-25."
Missouri,38.456085,-92.288368,19,19,12,12,12,19,20,21,22,24,25,2,1000,"Certain offenders may not reside w/in 1,000 ft. of school or child care center. §566.145."
Montana,46.921925,-110.454353,36,16,18,18,18,20,21,21,23,23,23,10,,-
Nebraska,41.12537,-98.268082,12,12,15,15,16,17,20,21,23,25,27,15,,"Nebraska has a statute preempting local residency restrictions except in certain narrow circumstances (e.g., 500 ft. exclusion zones applicable to SVPs). §29-4017."
Nevada,38.313515,-117.055374,19,22,23,24,24,24,25,24,26,22,23,15,,-
New Hampshire,43.452492,-71.563896,24,25,88,17,31,18,18,18,19,18,21,10,,-
New Jersey,40.298904,-74.521011,12,13,4,14,14,15,16,16,17,20,20,15,,-
New Mexico,34.840515,-106.248482,10,10,11,11,12,13,14,14,17,19,17,10,,-
New York,42.165726,-74.948051,11,12,13,14,15,15,16,17,18,19,16,20,1000,"Certain laws may impose a 1,000 ft. residency restriction from schools and child care facilities for registrants on parole or probation."
North Carolina,35.630066,-79.806419,12,10,13,13,15,13,14,15,15,20,17,30,1000,"1,000 ft. of school or child care center, with exceptions. §14-206.16."
North Dakota,47.528912,-99.784012,12,15,16,19,45,39,22,25,30,24,23,15,,"May not knowingly enter school without permission, subject to exceptions. §12.1-20-25."
Ohio,40.388783,-82.764915,12,12,15,15,17,16,26,17,16,16,15,10,1000,"1,000 ft. from school, preschool, or child day-care premises. §2950.034."
Oklahoma,35.565342,-96.928917,16,14,27,15,18,17,18,19,20,15,16,15,2000,"2,000 ft. from school, “educational institution,” campsite used for children, parks, and day care facilities. §57-590. Registrants are also banned from living in the same dwelling. §57-590.1."
Oregon,44.572021,-122.070938,42,47,51,38,43,56,46,63,48,69,71,10,,“Sexually violent dangerous” offenders and “predatory sex offenders” may nor reside “near locations where children are the primary occupants or users.” O.A.R. 291-202-0040.
Pennsylvania,40.590752,-77.209755,6,6,7,8,8,8,9,9,11,13,15,15,,-
Rhode Island,41.680893,-71.51178,15,13,17,16,3,16,14,15,15,15,16,10,,Tier III offenders barred from schools and parks. Note: this restriction was enjoined in 2015 pending a trial on the merits.
South Carolina,33.856892,-80.945007,19,20,23,23,25,27,28,28,19,30,33,100,1000,"For certain offenses against minors, may not reside w/in 1,000 ft. of school, day care center, “children’s recreational facility,” park, or playground. §23-3-535"
South Dakota,44.299782,-99.438828,22,25,30,31,35,33,35,36,37,39,40,5,500,"500 ft. from school, park, public playground, or public pool. §22-24B-23."
Tennessee,35.747845,-86.692345,13,14,17,18,21,19,24,29,30,32,33,10,1000,"1,000 ft. from school, day care center, child care facility, public park, playground, recreation center or athletic field, or the offender’s victim or victim’s family."
Texas,31.054487,-97.563461,20,19,21,22,23,23,26,27,29,31,31,10,,-
Utah,40.150032,-111.862434,33,27,28,26,27,29,25,24,24,24,25,10,,"May not be on premises of a day care or preschool, public swimming pool, school, community park open to the public, playground that is open to the public."
Vermont,44.045876,-72.710686,36,38,39,39,7,39,18,18,23,30,21,10,,-
Virginia,37.769337,-78.169968,17,16,19,6,22,21,23,23,24,34,26,15,500,Certain adult offenders with convictions involving minors sustained after July 2006 may not reside w/in 500 ft. of a school or parks adjacent to schools. §18.2-370.3.
Washington,47.400902,-121.490494,30,29,31,31,29,30,30,30,26,27,26,10,880,Certain L2 and L3 offenders on supervision may not reside w/in 880 ft. of a school. §9.94A.030(6)
West Virginia,38.491226,-80.954453,12,14,15,15,17,18,20,20,19,21,25,10,1000,"Certain registrants on supervised release for 10 yrs. or longer may not reside w/in or loiter w/in 1,000 ft. of school, child care facility, victim, or victim’s family, with exceptions. §62-12-26."
Wisconsin,44.268543,-89.616508,31,32,35,36,36,37,39,39,40,41,42,15,,Registrants must provide notice before going on school grounds. § 301.475.
Wyoming,42.755966,-107.30249,18,19,21,25,25,25,26,26,62,31,28,100,1000,Adult registrants may not enter school grounds if s/he “has reason to believe children . . . are present and are involved in school activity or when children are presents w/in 30 mins. before or after scheduled school activity.” Various exceptions apply. §6-2-320.